{"type":"FeatureCollection", "features": [
{"type":"Feature","geometry":{"type":"Point","coordinates":[7.605659200000048,9.032039000000054]},"properties":{"OBJECTID":1,"name":"Base One Estate Mararaba.","address_1":"2JJ4+R77","address_2":"Unnamed Road","phone_numb":"","longitude":7.6056592,"latitude":9.032039,"review":"","Rating":3.3}},
{"type":"Feature","geometry":{"type":"Point","coordinates":[7.607355400000074,9.026682300000061]},"properties":{"OBJECTID":2,"name":"Yankara Properties","address_1":"Mararaba Road Maraba","address_2":"Ado","phone_numb":"+234 803 485 5710","longitude":7.6073554,"latitude":9.0266823,"review":"","Rating":0}},
{"type":"Feature","geometry":{"type":"Point","coordinates":[7.589457700000025,9.013871600000073]},"properties":{"OBJECTID":3,"name":"Zamani Estate","address_1":"2H7Q+GQW","address_2":"Unnamed Road","phone_numb":"","longitude":7.5894577,"latitude":9.0138716,"review":"","Rating":4.1}},
{"type":"Feature","geometry":{"type":"Point","coordinates":[7.602576800000065,9.004229700000053]},"properties":{"OBJECTID":4,"name":"Mr Black Land Properties and Estate Management Consult","address_1":"2J33+M2W","address_2":"Sheik Muhammad Jaffar Street, Juwape","phone_numb":"+234 810 514 4444","longitude":7.6025768,"latitude":9.0042297,"review":"","Rating":3.7}},
{"type":"Feature","geometry":{"type":"Point","coordinates":[7.611448900000028,9.029701100000068]},"properties":{"OBJECTID":5,"name":"Solomon @Adron Homes and Properties Limited","address_1":"2JH6+VHP","address_2":"AYM, Ashafa Filling station, Maraba","phone_numb":"+234 813 263 4976","longitude":7.6114489,"latitude":9.0297011,"review":"","Rating":1}},
{"type":"Feature","geometry":{"type":"Point","coordinates":[7.60609850000003,9.013430800000037]},"properties":{"OBJECTID":6,"name":"Sa'abhi Hotels & Resort","address_1":"Austen Byke Estate, Off Emono Water, Behind International Market, Mararaba Karu","address_2":"Mararaba 961003","phone_numb":"+234 806 045 0208","longitude":7.6060985,"latitude":9.0134308,"review":"","Rating":3.7}},
{"type":"Feature","geometry":{"type":"Point","coordinates":[7.607355400000074,9.026682200000039]},"properties":{"OBJECTID":7,"name":"Afriboundaries","address_1":"Mararaba","address_2":"Abuja 961105","phone_numb":"","longitude":7.6073554,"latitude":9.0266822,"review":"","Rating":0}},
{"type":"Feature","geometry":{"type":"Point","coordinates":[7.605467400000066,9.025076800000022]},"properties":{"OBJECTID":8,"name":"Adron Homes and Properties Limited","address_1":"AYM Shafa Filling Station","address_2":"MARARABA","phone_numb":"+234 811 810 4677","longitude":7.6054674,"latitude":9.0250768,"review":"","Rating":4}},
{"type":"Feature","geometry":{"type":"Point","coordinates":[7.580388000000028,8.968088400000056]},"properties":{"OBJECTID":9,"name":"Matowyi Estate Dagbana","address_1":"XH9J+65J","address_2":"Jikwoyi","phone_numb":"","longitude":7.580388,"latitude":8.9680884,"review":"","Rating":3.8}},
{"type":"Feature","geometry":{"type":"Point","coordinates":[7.572462700000074,8.992685600000073]},"properties":{"OBJECTID":10,"name":"JEMPY LEE NIGERIA LIMITED","address_1":"Off No. 4 Agamati Street, Aso-Pada Karu LGA","address_2":"Mararaba 961003","phone_numb":"+234 816 387 6960","longitude":7.5724627,"latitude":8.9926856,"review":"","Rating":0}},
{"type":"Feature","geometry":{"type":"Point","coordinates":[7.60787270000003,9.023913200000038]},"properties":{"OBJECTID":11,"name":"SALMAN & NAKOLA NIGERIA LIMITED","address_1":"New Orange Market Behind ABA Plaza Shop No 2& 3 Opposite Baba ALi Gate, Mararaba Karu Local Government Area","address_2":"Mararaba 961105","phone_numb":"+234 706 170 7952","longitude":7.6078727,"latitude":9.0239132,"review":"","Rating":0}},
{"type":"Feature","geometry":{"type":"Point","coordinates":[7.586275800000067,9.025167800000077]},"properties":{"OBJECTID":12,"name":"Karu Court Estate","address_1":"2HGP+3G6","address_2":"Abacha Rd","phone_numb":"+234 803 360 6507","longitude":7.5862758,"latitude":9.0251678,"review":"","Rating":3.9}},
{"type":"Feature","geometry":{"type":"Point","coordinates":[7.674664600000028,8.993152700000053]},"properties":{"OBJECTID":13,"name":"24HOURSNEWIDEAS LIMITED","address_1":"Consulting Office: Success Plaza, Jubilation Road Karu","address_2":"Masaka 961105","phone_numb":"+234 703 844 8987","longitude":7.6746646,"latitude":8.9931527,"review":"","Rating":0}},
{"type":"Feature","geometry":{"type":"Point","coordinates":[7.605977400000029,9.024949500000048]},"properties":{"OBJECTID":14,"name":"Donatus@AdronHomes","address_1":"AYM Shafa Filling Station","address_2":"Mararaba","phone_numb":"+234 811 810 4677","longitude":7.6059774,"latitude":9.0249495,"review":"","Rating":0}},
{"type":"Feature","geometry":{"type":"Point","coordinates":[7.607355400000074,9.026682300000061]},"properties":{"OBJECTID":15,"name":"Mararaba","address_1":"Ado 961105","address_2":"Nasarawa","phone_numb":"","longitude":7.6073554,"latitude":9.0266823,"review":"","Rating":0}},
{"type":"Feature","geometry":{"type":"Point","coordinates":[7.600417800000059,9.027698500000042]},"properties":{"OBJECTID":16,"name":"Mararaba Market","address_1":"Abuja - Keffi Expy","address_2":"Mararaba","phone_numb":"","longitude":7.6004178,"latitude":9.0276985,"review":"","Rating":3.7}},
{"type":"Feature","geometry":{"type":"Point","coordinates":[7.607355400000074,9.026682300000061]},"properties":{"OBJECTID":17,"name":"Jogis Aluminium Company Nigeria Limited","address_1":"Nassarawa-Keffi Rd","address_2":"Mararaba","phone_numb":"","longitude":7.6073554,"latitude":9.0266823,"review":"","Rating":0}},
{"type":"Feature","geometry":{"type":"Point","coordinates":[7.5832836000000725,8.997536600000046]},"properties":{"OBJECTID":18,"name":"Nurses Estate","address_1":"XHXM+287","address_2":"Leha Rd","phone_numb":"","longitude":7.5832836,"latitude":8.9975366,"review":"","Rating":3.9}},
{"type":"Feature","geometry":{"type":"Point","coordinates":[7.61137750000006,9.029688900000053]},"properties":{"OBJECTID":19,"name":"Damodu Solomon Nigeria Limited","address_1":"31,Alhaji Hassan Gwaram Estate","address_2":"Nigeria","phone_numb":"+234 803 610 1045","longitude":7.6113775,"latitude":9.0296889,"review":"","Rating":0}},
{"type":"Feature","geometry":{"type":"Point","coordinates":[7.591944300000023,9.021240700000021]},"properties":{"OBJECTID":20,"name":"Touch a Child's Life Children's Orphanage Home","address_1":"Hyambula cres by chika's junction, Imani estate old Maraba Nasarawa NG, road, Old","address_2":"New Karu 900101","phone_numb":"+234 816 769 6042","longitude":7.5919443,"latitude":9.0212407,"review":"","Rating":4.8}},
{"type":"Feature","geometry":{"type":"Point","coordinates":[7.596420700000067,8.996935800000074]},"properties":{"OBJECTID":21,"name":"Constance Noble Academy","address_1":"Becky II Estate Rd, Nurses' Estate Phase II","address_2":"Mararaba","phone_numb":"+234 813 534 3463","longitude":7.5964207,"latitude":8.9969358,"review":"","Rating":4.7}},
{"type":"Feature","geometry":{"type":"Point","coordinates":[7.60541870000003,9.025048500000025]},"properties":{"OBJECTID":22,"name":"AYM Shafa Filling Station","address_1":"Maraba","address_2":"Nigeria","phone_numb":"","longitude":7.6054187,"latitude":9.0250485,"review":"","Rating":4}},
{"type":"Feature","geometry":{"type":"Point","coordinates":[7.611380800000063,9.029649300000074]},"properties":{"OBJECTID":23,"name":"Adam And Eve Nigeria Limited","address_1":"51 Emmanuel Estate","address_2":"Mararaba","phone_numb":"+234 705 565 1196","longitude":7.6113808,"latitude":9.0296493,"review":"","Rating":0}},
{"type":"Feature","geometry":{"type":"Point","coordinates":[7.60743750000006,8.994062500000041]},"properties":{"OBJECTID":24,"name":"Proposed residential","address_1":"New Karu 961105","address_2":"Nasarawa","phone_numb":"","longitude":7.6074375,"latitude":8.9940625,"review":"","Rating":3.5}},
{"type":"Feature","geometry":{"type":"Point","coordinates":[7.598833800000023,9.027381800000057]},"properties":{"OBJECTID":25,"name":"Office Mararaba","address_1":"Ado 961105","address_2":"Nasarawa","phone_numb":"+234 809 920 5058","longitude":7.5988338,"latitude":9.0273818,"review":"","Rating":4.5}},
{"type":"Feature","geometry":{"type":"Point","coordinates":[7.572462800000039,8.992685600000073]},"properties":{"OBJECTID":26,"name":"ZhahZ Engineering services Nigeria Ltd","address_1":"No 106 Farin Ruwa, behind Imani Estate, Maraba Karu LGA Maraba","address_2":"Nigeria","phone_numb":"+234 803 339 3434","longitude":7.5724628,"latitude":8.9926856,"review":"","Rating":0}},
{"type":"Feature","geometry":{"type":"Point","coordinates":[7.5797695000000544,9.015147300000024]},"properties":{"OBJECTID":27,"name":"Mammoth Hotels Limited","address_1":"2H8H+3W2","address_2":"Nyanyan Federal Housing Estate, Behind NTA Quarters","phone_numb":"+234 902 038 1121","longitude":7.5797695,"latitude":9.0151473,"review":"","Rating":3.3}},
{"type":"Feature","geometry":{"type":"Point","coordinates":[7.607814000000076,9.053239100000042]},"properties":{"OBJECTID":28,"name":"Kingdom Hall Of Jehovah's Witnesses Along Aso B","address_1":"3J35+74W","address_2":"Mararaba","phone_numb":"","longitude":7.607814,"latitude":9.0532391,"review":"","Rating":4.1}},
{"type":"Feature","geometry":{"type":"Point","coordinates":[7.611380800000063,9.029649300000074]},"properties":{"OBJECTID":29,"name":"Phejerry Nigeria Limited","address_1":"4,Austinbyke Estate","address_2":"Nasarawa","phone_numb":"+234 803 612 6556","longitude":7.6113808,"latitude":9.0296493,"review":"","Rating":0}},
{"type":"Feature","geometry":{"type":"Point","coordinates":[7.59395150000006,9.01862630000005]},"properties":{"OBJECTID":30,"name":"SOSMUSIC STUDIO ABUJA","address_1":"2JG4+MWH Imani Estate, Mararaba 961105, New Karu, Nasarawa 2H9V+FJR Ado","address_2":"New Karu 961105","phone_numb":"+234 803 221 2833","longitude":7.5939515,"latitude":9.0186263,"review":"","Rating":4.9}},
{"type":"Feature","geometry":{"type":"Point","coordinates":[7.5824005000000625,9.026135900000043]},"properties":{"OBJECTID":31,"name":"Old chief by oasis","address_1":"8 A234","address_2":"Karu","phone_numb":"","longitude":7.5824005,"latitude":9.0261359,"review":"","Rating":5}},
{"type":"Feature","geometry":{"type":"Point","coordinates":[7.686727200000064,8.944700300000022]},"properties":{"OBJECTID":32,"name":"Goshen Guest House","address_1":"Km 26 Abuja - Keffi Expy","address_2":"Abuja 961105","phone_numb":"+234 805 761 8079","longitude":7.6867272,"latitude":8.9447003,"review":"","Rating":4.3}},
{"type":"Feature","geometry":{"type":"Point","coordinates":[7.591764400000045,9.018922900000064]},"properties":{"OBJECTID":33,"name":"Virgo Stars Nigeria","address_1":"Imani estate Farin-ruwa","address_2":"Off Abuja - Keffi Expy","phone_numb":"","longitude":7.5917644,"latitude":9.0189229,"review":"","Rating":0}}
]}